%time,field.transforms0.header.seq,field.transforms0.header.stamp,field.transforms0.header.frame_id,field.transforms0.child_frame_id,field.transforms0.transform.translation.x,field.transforms0.transform.translation.y,field.transforms0.transform.translation.z,field.transforms0.transform.rotation.x,field.transforms0.transform.rotation.y,field.transforms0.transform.rotation.z,field.transforms0.transform.rotation.w
1445255090923574924,0,1445255090922347020,odom,base_footprint,0.0,0.0,0.0,0.0,0.0,-0.000872664515235,0.999999619228
1445255090942698001,0,1445255090941949079,odom,base_footprint,0.0,0.0,0.0,0.0,0.0,-0.000872664515235,0.999999619228
1445255090963742017,0,1445255090962935766,odom,base_footprint,0.0,0.0,0.0,0.0,0.0,-0.000872664515235,0.999999619228
1445255090982652902,0,1445255090981948764,odom,base_footprint,0.0,0.0,0.0,0.0,0.0,-0.000872664515235,0.999999619228
1445255091002669095,0,1445255091001941769,odom,base_footprint,0.0,0.0,0.0,0.0,0.0,-0.000872664515235,0.999999619228
1445255091022732019,0,1445255091021933120,odom,base_footprint,0.0,0.0,0.0,0.0,0.0,-0.000872664515235,0.999999619228
1445255091042670965,0,1445255091041932975,odom,base_footprint,0.0,0.0,0.0,0.0,0.0,-0.000872664515235,0.999999619228
1445255091062706947,0,1445255091061936769,odom,base_footprint,0.0,0.0,0.0,0.0,0.0,-0.000872664515235,0.999999619228
1445255091082638978,0,1445255091081934695,odom,base_footprint,0.0,0.0,0.0,0.0,0.0,-0.000872664515235,0.999999619228
1445255091102678060,0,1445255091101958244,odom,base_footprint,0.0,0.0,0.0,0.0,0.0,-0.000872664515235,0.999999619228
1445255091122817039,0,1445255091121930542,odom,base_footprint,0.0,0.0,0.0,0.0,0.0,-0.000872664515235,0.999999619228
1445255091142644882,0,1445255091141932136,odom,base_footprint,0.0,0.0,0.0,0.0,0.0,-0.000872664515235,0.999999619228
1445255091162700891,0,1445255091161946809,odom,base_footprint,0.0,0.0,0.0,0.0,0.0,-0.000872664515235,0.999999619228
1445255091182439088,0,1445255091181813698,odom,base_footprint,0.0,0.0,0.0,0.0,0.0,-0.000872664515235,0.999999619228
1445255091202461957,0,1445255091201819402,odom,base_footprint,0.0,0.0,0.0,0.0,0.0,-0.000872664515235,0.999999619228
1445255091222501993,0,1445255091221824268,odom,base_footprint,0.0,0.0,0.0,0.0,0.0,-0.000872664515235,0.999999619228
1445255091242444992,0,1445255091241807912,odom,base_footprint,0.0,0.0,0.0,0.0,0.0,-0.000872664515235,0.999999619228
1445255091262512922,0,1445255091261807416,odom,base_footprint,0.0,0.0,0.0,0.0,0.0,-0.000872664515235,0.999999619228
1445255091281310081,0,1445255091280696463,odom,base_footprint,0.0,0.0,0.0,0.0,0.0,-0.000872664515235,0.999999619228
1445255091301316022,0,1445255091300671292,odom,base_footprint,0.0,0.0,0.0,0.0,0.0,-0.000872664515235,0.999999619228
1445255091322254896,0,1445255091321312040,odom,base_footprint,0.0,0.0,0.0,0.0,0.0,-0.000872664515235,0.999999619228
1445255091341368913,0,1445255091340689665,odom,base_footprint,0.0,0.0,0.0,0.0,0.0,-0.000872664515235,0.999999619228
1445255091361392974,0,1445255091360687210,odom,base_footprint,0.0,0.0,0.0,0.0,0.0,-0.000872664515235,0.999999619228
1445255091382335901,0,1445255091381676573,odom,base_footprint,0.0,0.0,0.0,0.0,0.0,-0.000872664515235,0.999999619228
1445255091402436971,0,1445255091401681394,odom,base_footprint,0.0,0.0,0.0,0.0,0.0,-0.000872664515235,0.999999619228
1445255091422396898,0,1445255091421684943,odom,base_footprint,0.0,0.0,0.0,0.0,0.0,-0.000872664515235,0.999999619228
1445255091442261934,0,1445255091441563122,odom,base_footprint,0.0,0.0,0.0,0.0,0.0,-0.000872664515235,0.999999619228
1445255091462249040,0,1445255091461547422,odom,base_footprint,0.0,0.0,0.0,0.0,0.0,-0.000872664515235,0.999999619228
1445255091481240034,0,1445255091480569351,odom,base_footprint,0.0,0.0,0.0,0.0,0.0,-0.000872664515235,0.999999619228
1445255091501224994,0,1445255091500552668,odom,base_footprint,0.0,0.0,0.0,0.0,0.0,-0.000872664515235,0.999999619228
1445255091521243095,0,1445255091520557234,odom,base_footprint,0.0,0.0,0.0,0.0,0.0,-0.000872664515235,0.999999619228
1445255091541182994,0,1445255091540558608,odom,base_footprint,0.0,0.0,0.0,0.0,0.0,-0.000872664515235,0.999999619228
1445255091561211109,0,1445255091560554619,odom,base_footprint,0.0,0.0,0.0,0.0,0.0,-0.000872664515235,0.999999619228
1445255091582396030,0,1445255091581620020,odom,base_footprint,0.0,0.0,0.0,0.0,0.0,-0.000959930941173,0.999999539266
1445255091602252006,0,1445255091601491178,odom,base_footprint,0.0,0.0,0.0,0.0,0.0,-0.000959930941173,0.999999539266
1445255091622409105,0,1445255091621483832,odom,base_footprint,0.0,0.0,0.0,0.0,0.0,-0.000785398082652,0.999999691575
1445255091641242980,0,1445255091640490932,odom,base_footprint,0.0,0.0,0.0,0.0,0.0,-0.000698131644088,0.999999756306
1445255091661267042,0,1445255091660486503,odom,base_footprint,0.0,0.0,0.0,0.0,0.0,-0.000610865200207,0.999999813422
1445255091681128978,0,1445255091680417296,odom,base_footprint,0.0,0.0,0.0,0.0,0.0,-0.000610865200207,0.999999813422
1445255091701445102,0,1445255091700503477,odom,base_footprint,0.0,0.0,0.0,0.0,0.0,-0.000610865200207,0.999999813422
1445255091721267938,0,1445255091720459834,odom,base_footprint,0.0,0.0,0.0,0.0,0.0,-0.000698131644088,0.999999756306
1445255091741549015,0,1445255091740557460,odom,base_footprint,0.0,0.0,0.0,0.0,0.0,-0.000698131644088,0.999999756306
1445255091761410951,0,1445255091760414201,odom,base_footprint,0.0,0.0,0.0,0.0,0.0,-0.000698131644088,0.999999756306
1445255091782350063,0,1445255091781373962,odom,base_footprint,0.0,0.0,0.0,0.0,0.0,-0.000698131644088,0.999999756306
1445255091801368951,0,1445255091800387762,odom,base_footprint,0.0,0.0,0.0,0.0,0.0,-0.000698131644088,0.999999756306
1445255091821038007,0,1445255091820299839,odom,base_footprint,0.0,0.0,0.0,0.0,0.0,-0.000785398082652,0.999999691575
1445255091841173887,0,1445255091840342476,odom,base_footprint,0.0,0.0,0.0,0.0,0.0,-0.000785398082652,0.999999691575
1445255091861290931,0,1445255091860378368,odom,base_footprint,0.0,0.0,0.0,0.0,0.0,-0.000785398082652,0.999999691575
1445255091881294012,0,1445255091880347954,odom,base_footprint,0.0,0.0,0.0,0.0,0.0,-0.000785398082652,0.999999691575
1445255091901240110,0,1445255091900310044,odom,base_footprint,0.0,0.0,0.0,0.0,0.0,-0.000785398082652,0.999999691575
1445255091921356916,0,1445255091920356795,odom,base_footprint,0.0,0.0,0.0,0.0,0.0,-0.000872664515235,0.999999619228
1445255091941117048,0,1445255091940209532,odom,base_footprint,0.0,0.0,0.0,0.0,0.0,-0.000959930941173,0.999999539266
1445255091960933923,0,1445255091960195481,odom,base_footprint,0.0,0.0,0.0,0.0,0.0,-0.0010471973598,0.999999451689
1445255091980917930,0,1445255091980197506,odom,base_footprint,0.0,0.0,0.0,0.0,0.0,-0.00113446377045,0.999999356496
1445255092001812934,0,1445255092001178550,odom,base_footprint,0.0,0.0,0.0,0.0,0.0,-0.00113446377045,0.999999356496
1445255092020865917,0,1445255092020195452,odom,base_footprint,4.26459343952e-05,-9.67607218546e-08,0.0,0.0,0.0,-0.00113446377045,0.999999356496
1445255092040834903,0,1445255092040179797,odom,base_footprint,0.000127937803185,-2.90282165564e-07,0.0,0.0,0.0,-0.00122173017247,0.999999253687
1445255092060878992,0,1445255092060194336,odom,base_footprint,0.000255875553759,-6.02893685627e-07,0.0,0.0,0.0,-0.00122173017247,0.999999253687
1445255092080998897,0,1445255092080183226,odom,base_footprint,0.000469105138047,-1.12391288573e-06,0.0,0.0,0.0,-0.00122173017247,0.999999253687
1445255092100805997,0,1445255092100091524,odom,base_footprint,0.000767626556051,-1.85333976588e-06,0.0,0.0,0.0,-0.00122173017247,0.999999253687
1445255092120760917,0,1445255092120052366,odom,base_footprint,0.0013220234752,-3.20798968615e-06,0.0,0.0,0.0,-0.00113446377045,0.999999356496
1445255092140810966,0,1445255092140007023,odom,base_footprint,0.00204700435992,-4.85292195768e-06,0.0,0.0,0.0,-0.000872664515235,0.999999619228
1445255092160737991,0,1445255092160053539,odom,base_footprint,0.00289992394418,-6.34154896923e-06,0.0,0.0,0.0,-0.000785398082652,0.999999691575
1445255092180423021,0,1445255092179961021,odom,base_footprint,0.00388078174993,-7.88227807481e-06,0.0,0.0,0.0,-0.000785398082652,0.999999691575
1445255092200747013,0,1445255092200053190,odom,base_footprint,0.0050322235219,-9.69096006831e-06,0.0,0.0,0.0,-0.000872664515235,0.999999619228
1445255092220766067,0,1445255092220053781,odom,base_footprint,0.0063542488775,-1.19983319362e-05,0.0,0.0,0.0,-0.000872664515235,0.999999619228
1445255092240756034,0,1445255092240050946,odom,base_footprint,0.00793215010839,-1.47522919076e-05,0.0,0.0,0.0,-0.000872664515235,0.999999619228
1445255092260652065,0,1445255092259928639,odom,base_footprint,0.0095953432977,-1.76551145801e-05,0.0,0.0,0.0,-0.000872664515235,0.999999619228
1445255092280615091,0,1445255092279946901,odom,base_footprint,0.011258536487,-2.05579372526e-05,0.0,0.0,0.0,-0.000872664515235,0.999999619228
1445255092300578117,0,1445255092299934548,odom,base_footprint,0.0132202515308,-2.39817793792e-05,0.0,0.0,0.0,-0.000785398082652,0.999999691575
1445255092320610046,0,1445255092319928731,odom,base_footprint,0.0153525511085,-2.73311904783e-05,0.0,0.0,0.0,-0.000698131644088,0.999999756306
1445255092340718030,0,1445255092339926075,odom,base_footprint,0.0176554352487,-3.05466254109e-05,0.0,0.0,0.0,-0.000698131644088,0.999999756306
1445255092359685897,0,1445255092358930800,odom,base_footprint,0.0198730273838,-3.36429701609e-05,0.0,0.0,0.0,-0.000698131644088,0.999999756306
1445255092379667997,0,1445255092378928089,odom,base_footprint,0.0223038495318,-3.70370403676e-05,0.0,0.0,0.0,-0.000698131644088,0.999999756306
1445255092400661945,0,1445255092399927134,odom,base_footprint,0.0248626096875,-4.06097458483e-05,0.0,0.0,0.0,-0.000610865200207,0.999999813422
1445255092420697927,0,1445255092419924534,odom,base_footprint,0.0275066624526,-4.38400672997e-05,0.0,0.0,0.0,-0.000610865200207,0.999999813422
1445255092440654039,0,1445255092439914928,odom,base_footprint,0.0299801311683,-4.68619809156e-05,0.0,0.0,0.0,-0.000523598751674,0.999999862922
1445255092460690975,0,1445255092459929697,odom,base_footprint,0.0322830162906,-4.92735574579e-05,0.0,0.0,0.0,-0.000436332299153,0.999999904807
1445255092479652881,0,1445255092478921847,odom,base_footprint,0.0346285478266,-5.13204203782e-05,0.0,0.0,0.0,-0.000436332299153,0.999999904807
1445255092500581979,0,1445255092499798886,odom,base_footprint,0.0372299555303,-5.35905774352e-05,0.0,0.0,0.0,-0.000436332299153,0.999999904807
1445255092519731044,0,1445255092518814831,odom,base_footprint,0.0398740092618,-5.58979501817e-05,0.0,0.0,0.0,-0.00034906584331,0.999999939077
1445255092539541959,0,1445255092538787880,odom,base_footprint,0.0424327712883,-5.76843033574e-05,0.0,0.0,0.0,-0.00034906584331,0.999999939077
1445255092559540987,0,1445255092558797347,odom,base_footprint,0.0448635952134,-5.93813388743e-05,0.0,0.0,0.0,-0.000261799384809,0.999999965731
1445255092579569101,0,1445255092578802635,odom,base_footprint,0.047465003551,-6.07434332192e-05,0.0,0.0,0.0,-0.000174532924313,0.999999984769
1445255092599400043,0,1445255092598682869,odom,base_footprint,0.0504075804192,-6.17705863578e-05,0.0,0.0,0.0,-0.000261799384809,0.999999965731
1445255092620738029,0,1445255092619674768,odom,base_footprint,0.0531369268718,-6.31996689491e-05,0.0,0.0,0.0,-0.000261799384809,0.999999965731
1445255092639429092,0,1445255092638671003,odom,base_footprint,0.055695689171,-6.45394338785e-05,0.0,0.0,0.0,-0.000261799384809,0.999999965731
1445255092659393072,0,1445255092658671294,odom,base_footprint,0.0583397435469,-6.59238576388e-05,0.0,0.0,0.0,-0.000174532924313,0.999999984769
1445255092679399013,0,1445255092678674557,odom,base_footprint,0.061197028332,-6.69212382227e-05,0.0,0.0,0.0,-8.7266462489e-05,0.999999996192
1445255092699378967,0,1445255092698667376,odom,base_footprint,0.0640969592912,-6.7427371661e-05,0.0,0.0,0.0,0.0,1.0
1445255092719412088,0,1445255092718673426,odom,base_footprint,0.0667836600737,-6.7427371661e-05,0.0,0.0,0.0,0.0,1.0
1445255092739279985,0,1445255092738544720,odom,base_footprint,0.0695982989887,-6.7427371661e-05,0.0,0.0,0.0,8.72664624889e-05,0.999999996192
1445255092759205102,0,1445255092758538581,odom,base_footprint,0.0725408759914,-6.69137950839e-05,0.0,0.0,0.0,0.000174532924313,0.999999984769
1445255092779197931,0,1445255092778545121,odom,base_footprint,0.0756540370259,-6.58270968358e-05,0.0,0.0,0.0,0.00034906584331,0.999999939077
1445255092799196004,0,1445255092798555992,odom,base_footprint,0.0787245514576,-6.3683473025e-05,0.0,0.0,0.0,0.00034906584331,0.999999939077
1445255092820272922,0,1445255092819548758,odom,base_footprint,0.0818803579569,-6.14803041083e-05,0.0,0.0,0.0,0.000523598751674,0.999999862922
1445255092839200019,0,1445255092838542357,odom,base_footprint,0.0852493935988,-5.79522569446e-05,0.0,0.0,0.0,0.000610865200207,0.999999813422
1445255092859190940,0,1445255092858547569,odom,base_footprint,0.0887037205983,-5.37319982741e-05,0.0,0.0,0.0,0.000610865200207,0.999999813422
1445255092879185914,0,1445255092878542418,odom,base_footprint,0.0920727555731,-4.96159435214e-05,0.0,0.0,0.0,0.000698131644088,0.999999756306
1445255092899048089,0,1445255092898418528,odom,base_footprint,0.0956123737886,-4.46737009398e-05,0.0,0.0,0.0,0.000785398082652,0.999999691575
1445255092919080018,0,1445255092918421911,odom,base_footprint,0.0992799290623,-3.89127138493e-05,0.0,0.0,0.0,0.000872664515235,0.999999619228
1445255092939105033,0,1445255092938425540,odom,base_footprint,0.102990129254,-3.24371863491e-05,0.0,0.0,0.0,0.000959930941173,0.999999539266
1445255092959063053,0,1445255092958426207,odom,base_footprint,0.106870912121,-2.49866089506e-05,0.0,0.0,0.0,0.0010471973598,0.999999451689
1445255092979022026,0,1445255092978397116,odom,base_footprint,0.110794339579,-1.67693896825e-05,0.0,0.0,0.0,0.00113446377045,0.999999356496
1445255092999133110,0,1445255092998421347,odom,base_footprint,0.114803057412,-7.67388182813e-06,0.0,0.0,0.0,0.00122173017247,0.999999253687
1445255093019121885,0,1445255093018426760,odom,base_footprint,0.118897065431,2.32968681388e-06,0.0,0.0,0.0,0.00130899656517,0.999999143264
1445255093040237903,0,1445255093039411402,odom,base_footprint,0.122991071641,1.30477944951e-05,0.0,0.0,0.0,0.00148352932002,0.99999889957
1445255093059066057,0,1445255093058416808,odom,base_footprint,0.127127719717,2.53215124282e-05,0.0,0.0,0.0,0.00148352932002,0.99999889957
1445255093078957080,0,1445255093078314582,odom,base_footprint,0.131221721936,3.74686971867e-05,0.0,0.0,0.0,0.00157079568083,0.9999987663
1445255093098921060,0,1445255093098287656,odom,base_footprint,0.135273076139,5.01964436609e-05,0.0,0.0,0.0,0.00165806202968,0.999998625414
1445255093118966102,0,1445255093118305638,odom,base_footprint,0.13919649063,6.32070265017e-05,0.0,0.0,0.0,0.0017453283659,0.999998476913
1445255093138972997,0,1445255093138300201,odom,base_footprint,0.143034611222,7.66046491999e-05,0.0,0.0,0.0,0.00183259468883,0.999998320797
1445255093158981084,0,1445255093158293496,odom,base_footprint,0.147085958205,9.14536779329e-05,0.0,0.0,0.0,0.0019198609978,0.999998157065
1445255093178927898,0,1445255093178292479,odom,base_footprint,0.151094656806,0.000106846051224,0.0,0.0,0.0,0.0019198609978,0.999998157065
1445255093198982954,0,1445255093198302332,odom,base_footprint,0.155103355406,0.000122238424515,0.0,0.0,0.0,0.00200712729215,0.999997985718
1445255093218988895,0,1445255093218296124,odom,base_footprint,0.158941468457,0.000137645680527,0.0,0.0,0.0,0.00209439357122,0.999997806755
1445255093239185094,0,1445255093238294455,odom,base_footprint,0.1628648701,0.000154080083019,0.0,0.0,0.0,0.00226892608084,0.999997425984
1445255093258908033,0,1445255093258176173,odom,base_footprint,0.166873556977,0.000172271051904,0.0,0.0,0.0,0.00235619231006,0.999997224175
1445255093278866052,0,1445255093278186492,odom,base_footprint,0.170754303907,0.00019055877634,0.0,0.0,0.0,0.00235619231006,0.999997224175
1445255093298825025,0,1445255093298166968,odom,base_footprint,0.174635050837,0.000208846500777,0.0,0.0,0.0,0.00235619231006,0.999997224175
1445255093318849086,0,1445255093318174741,odom,base_footprint,0.178558443337,0.000227335189218,0.0,0.0,0.0,0.00235619231006,0.999997224175
1445255093338879108,0,1445255093338176245,odom,base_footprint,0.182609772549,0.000246426769674,0.0,0.0,0.0,0.00235619231006,0.999997224175
1445255093358838081,0,1445255093358173364,odom,base_footprint,0.186874329615,0.000266523170154,0.0,0.0,0.0,0.00244345852134,0.999997014751
1445255093377847909,0,1445255093377166452,odom,base_footprint,0.191138883108,0.000287363875943,0.0,0.0,0.0,0.00253072471402,0.999996797711
1445255093397998094,0,1445255093397165676,odom,base_footprint,0.195488723895,0.000309380586617,0.0,0.0,0.0,0.00253072471402,0.999996797711
1445255093417743921,0,1445255093417051407,odom,base_footprint,0.200009146673,0.000332260697708,0.0,0.0,0.0,0.00261799088742,0.999996573056
1445255093438711881,0,1445255093438015819,odom,base_footprint,0.204742792687,0.000357046236782,0.0,0.0,0.0,0.00261799088742,0.999996573056
1445255093458719968,0,1445255093458065297,odom,base_footprint,0.209433793241,0.000381608482711,0.0,0.0,0.0,0.00261799088742,0.999996573056
1445255093478729009,0,1445255093478044315,odom,base_footprint,0.214124793796,0.000406170728641,0.0,0.0,0.0,0.00270525704088,0.999996340785
1445255093498728990,0,1445255093498036693,odom,base_footprint,0.219071662511,0.000432936125309,0.0,0.0,0.0,0.00270525704088,0.999996340785
1445255093518744945,0,1445255093518041550,odom,base_footprint,0.224189112907,0.000460624466691,0.0,0.0,0.0,0.00279252317374,0.9999961009
1445255093538783073,0,1445255093538048491,odom,base_footprint,0.229306558392,0.000489205971233,0.0,0.0,0.0,0.00279252317374,0.9999961009
1445255093557609081,0,1445255093556931494,odom,base_footprint,0.234509294635,0.000518263834185,0.0,0.0,0.0,0.00287978928534,0.999995853398
1445255093577629089,0,1445255093576919237,odom,base_footprint,0.239839961738,0.000548966612135,0.0,0.0,0.0,0.00287978928534,0.999995853398
1445255093597815990,0,1445255093596920701,odom,base_footprint,0.245383855525,0.000580897501204,0.0,0.0,0.0,0.002967055375,0.999995598282
1445255093617619991,0,1445255093616924560,odom,base_footprint,0.250927743655,0.000613795981781,0.0,0.0,0.0,0.002967055375,0.999995598282
1445255093637676000,0,1445255093636925433,odom,base_footprint,0.256599567665,0.000647453658064,0.0,0.0,0.0,0.00305432144207,0.999995335549
1445255093658596038,0,1445255093657918640,odom,base_footprint,0.262441966707,0.000683143286821,0.0,0.0,0.0,0.00314158748588,0.999995065202
1445255093677611112,0,1445255093676915782,odom,base_footprint,0.268284359432,0.000719852606024,0.0,0.0,0.0,0.00314158748588,0.999995065202
1445255093697582960,0,1445255093696917446,odom,base_footprint,0.27399881655,0.000755758071523,0.0,0.0,0.0,0.00322885350576,0.999994787239
1445255093717597007,0,1445255093716918289,odom,base_footprint,0.279585331849,0.000791834714717,0.0,0.0,0.0,0.00331611950106,0.999994501661
1445255093737633943,0,1445255093736929455,odom,base_footprint,0.285427711404,0.000830583411427,0.0,0.0,0.0,0.0034033854711,0.999994208467
1445255093757591009,0,1445255093756919663,odom,base_footprint,0.291440664331,0.000871512915828,0.0,0.0,0.0,0.00349065141522,0.999993907658
1445255093777604103,0,1445255093776920079,odom,base_footprint,0.297581545039,0.000914385047269,0.0,0.0,0.0,0.00357791733276,0.999993599233
1445255093797627925,0,1445255093796928218,odom,base_footprint,0.303551838361,0.000957108299573,0.0,0.0,0.0,0.00375244908544,0.999992959538
1445255093817466974,0,1445255093816796175,odom,base_footprint,0.30943682672,0.00100127547082,0.0,0.0,0.0,0.00383971491924,0.999992628267
1445255093837485074,0,1445255093836793970,odom,base_footprint,0.315407096854,0.0010471247554,0.0,0.0,0.0,0.00383971491924,0.999992628267
1445255093858442068,0,1445255093857789572,odom,base_footprint,0.321420011774,0.00109330153486,0.0,0.0,0.0,0.00392698072381,0.999992289381
1445255093877470016,0,1445255093876788970,odom,base_footprint,0.327262339628,0.00113918801404,0.0,0.0,0.0,0.00392698072381,0.999992289381
1445255093897469043,0,1445255093896793841,odom,base_footprint,0.333275246398,0.00118641424443,0.0,0.0,0.0,0.00401424649846,0.99999194288
1445255093917483091,0,1445255093916817606,odom,base_footprint,0.339288144833,0.0012346899243,0.0,0.0,0.0,0.00410151224255,0.999991588763
1445255093937356948,0,1445255093936663622,odom,base_footprint,0.345258390142,0.00128366522858,0.0,0.0,0.0,0.0041887779554,0.999991227031
1445255093957292079,0,1445255093956634657,odom,base_footprint,0.351100693169,0.00133261073703,0.0,0.0,0.0,0.0041887779554,0.999991227031
1445255093977344989,0,1445255093976668765,odom,base_footprint,0.356815062554,0.00138048444603,0.0,0.0,0.0,0.00427604363636,0.999990857684
1445255093997394084,0,1445255093996666601,odom,base_footprint,0.36257206798,0.00142972020926,0.0,0.0,0.0,0.00436330928475,0.999990480721
1445255094017327070,0,1445255094016677621,odom,base_footprint,0.368115842624,0.00147809999764,0.0,0.0,0.0,0.00453784048118,0.999989703949
1445255094037493944,0,1445255094036712305,odom,base_footprint,0.373787532905,0.00152957603916,0.0,0.0,0.0,0.00471237153937,0.999988896716
1445255094058530092,0,1445255094057664765,odom,base_footprint,0.379459204873,0.00158303187089,0.0,0.0,0.0,0.00488690245402,0.999988059021
1445255094077229976,0,1445255094076544055,odom,base_footprint,0.384960281807,0.00163680024977,0.0,0.0,0.0,0.00497416785586,0.999987628751
1445255094097234010,0,1445255094096533637,odom,base_footprint,0.39054663714,0.00169237725071,0.0,0.0,0.0,0.00514869854522,0.999986745364
1445255094117227077,0,1445255094116559366,odom,base_footprint,0.396132972732,0.0017499042541,0.0,0.0,0.0,0.00523596383142,0.999986292247
1445255094137283086,0,1445255094136544843,odom,base_footprint,0.4017192982,0.0018084062561,0.0,0.0,0.0,0.00532322907774,0.999985831516
1445255094157244920,0,1445255094156538780,odom,base_footprint,0.407348256999,0.00186833727782,0.0,0.0,0.0,0.00541049428353,0.999985363169
1445255094177227973,0,1445255094176539888,odom,base_footprint,0.41284927461,0.00192786634046,0.0,0.0,0.0,0.00558502457083,0.999984403629
1445255094197227001,0,1445255094196538335,odom,base_footprint,0.418435557874,0.00199026831878,0.0,0.0,0.0,0.00567228965101,0.999983912436
1445255094217288017,0,1445255094216537313,odom,base_footprint,0.423893900261,0.00205219390557,0.0,0.0,0.0,0.005759554688,0.999983413627
1445255094237101078,0,1445255094236411178,odom,base_footprint,0.429394874973,0.00211556338817,0.0,0.0,0.0,0.00584681968112,0.999982907204
1445255094257064104,0,1445255094256403882,odom,base_footprint,0.43489583854,0.00217989297101,0.0,0.0,0.0,0.00602134953313,0.999981871511
1445255094277076005,0,1445255094276407866,odom,base_footprint,0.440396779318,0.00224614274842,0.0,0.0,0.0,0.00619587920171,0.999980805356
1445255094297090053,0,1445255094296418611,odom,base_footprint,0.445855053864,0.00231378426299,0.0,0.0,0.0,0.00628314396556,0.999980260856
1445255094317050933,0,1445255094316414598,odom,base_footprint,0.451228031168,0.00238130664137,0.0,0.0,0.0,0.00637040868156,0.999979708741
1445255094337101936,0,1445255094336413260,odom,base_footprint,0.456600996605,0.00244976678015,0.0,0.0,0.0,0.00654493796735,0.999978581664
1445255094357049942,0,1445255094356380572,odom,base_footprint,0.461931295427,0.00251954421401,0.0,0.0,0.0,0.00663220253582,0.999978006703
1445255094377070903,0,1445255094376412595,odom,base_footprint,0.467133655112,0.00258855497356,0.0,0.0,0.0,0.00680673152056,0.999976833935
1445255094397094964,0,1445255094396372359,odom,base_footprint,0.472463916668,0.00266112333566,0.0,0.0,0.0,0.00689399593551,0.999976236128
1445255094416491031,0,1445255094415479857,odom,base_footprint,0.477751523487,0.00273403401346,0.0,0.0,0.0,0.00698126029796,0.999975630705
1445255094437608003,0,1445255094436456882,odom,base_footprint,0.483209685049,0.00281024927866,0.0,0.0,0.0,0.00706852460725,0.999975017668
1445255094456281900,0,1445255094455306550,odom,base_footprint,0.488539907878,0.00288560854911,0.0,0.0,0.0,0.00724305306366,0.999973768747
1445255094477422952,0,1445255094476374471,odom,base_footprint,0.494125953494,0.0029665349672,0.0,0.0,0.0,0.00741758129944,0.999972489365
1445255094497273921,0,1445255094496359964,odom,base_footprint,0.499797253224,0.00305067656527,0.0,0.0,0.0,0.00759210930926,0.999971179523
1445255094517251968,0,1445255094516320400,odom,base_footprint,0.505340599853,0.00313485523065,0.0,0.0,0.0,0.00767937322778,0.999970513179
1445255094537374019,0,1445255094536381935,odom,base_footprint,0.511139777792,0.00322393121404,0.0,0.0,0.0,0.00785390088871,0.999969157645
1445255094557199954,0,1445255094556268443,odom,base_footprint,0.517066846633,0.00331704105179,0.0,0.0,0.0,0.00811569192986,0.99996706723
1445255094577104091,0,1445255094576230913,odom,base_footprint,0.523036506336,0.00341394646413,0.0,0.0,0.0,0.00820295548752,0.999966355195
1445255094596277952,0,1445255094595243195,odom,base_footprint,0.529091429645,0.0035132930245,0.0,0.0,0.0,0.00829021898271,0.999965635544
1445255094616043090,0,1445255094615136403,odom,base_footprint,0.535231615887,0.00361511049841,0.0,0.0,0.0,0.00846474578303,0.999964173398
1445255094636370897,0,1445255094635145074,odom,base_footprint,0.541371766214,0.0037190712954,0.0,0.0,0.0,0.00872653549837,0.999961923064
1445255094655977964,0,1445255094655170702,odom,base_footprint,0.547469221716,0.00382550277709,0.0,0.0,0.0,0.0089010616441,0.999960384766
1445255094675868034,0,1445255094675162865,odom,base_footprint,0.553651918268,0.00393558098586,0.0,0.0,0.0,0.00907558751868,0.999958816008
1445255094696834087,0,1445255094696173376,odom,base_footprint,0.559877215039,0.00404859140005,0.0,0.0,0.0,0.00942463843314,0.999955587109
1445255094715862035,0,1445255094715181759,odom,base_footprint,0.566102431396,0.00416594786337,0.0,0.0,0.0,0.0095991634624,0.999953926969
1445255094735963106,0,1445255094735041922,odom,base_footprint,0.572157053668,0.00428220255002,0.0,0.0,0.0,0.00977368819925,0.999952236369
1445255094755760908,0,1445255094755029034,odom,base_footprint,0.578083721301,0.00439806995605,0.0,0.0,0.0,0.00994821263837,0.999950515308
1445255094775746107,0,1445255094775035023,odom,base_footprint,0.583925072922,0.00451430922856,0.0,0.0,0.0,0.0101227367745,0.999948763788
1445255094795734882,0,1445255094795036732,odom,base_footprint,0.58955319709,0.00462827078471,0.0,0.0,0.0,0.0103845223988,0.999946079394
1445255094815747976,0,1445255094815034463,odom,base_footprint,0.595095987124,0.00474340786434,0.0,0.0,0.0,0.0107335687876,0.999942393591
1445255094835839033,0,1445255094835046726,odom,base_footprint,0.600851876514,0.00486699169183,0.0,0.0,0.0,0.0109080914942,0.999940505
1445255094855854034,0,1445255094855094495,odom,base_footprint,0.606650358311,0.00499351501472,0.0,0.0,0.0,0.0109953527232,0.999939549282
1445255094875921010,0,1445255094875095087,odom,base_footprint,0.612448817937,0.00512105036167,0.0,0.0,0.0,0.0112571359053,0.999936636438
1445255094896744966,0,1445255094895913352,odom,base_footprint,0.61824720999,0.00525162175736,0.0,0.0,0.0,0.0114316575991,0.999934656467
1445255094915664911,0,1445255094914931402,odom,base_footprint,0.624130825908,0.00538616709818,0.0,0.0,0.0,0.0116061789447,0.999932646037
1445255094935960054,0,1445255094934990095,odom,base_footprint,0.630184932723,0.00552672559442,0.0,0.0,0.0,0.0116934394852,0.999931629399
1445255094955816984,0,1445255094954927003,odom,base_footprint,0.63640955244,0.00567232988821,0.0,0.0,0.0,0.0118679602985,0.999929573279
1445255094975955009,0,1445255094974979232,odom,base_footprint,0.642762023045,0.00582314349076,0.0,0.0,0.0,0.0120424807503,0.9999274867
1445255094995903015,0,1445255094994983181,odom,base_footprint,0.649370242669,0.00598233683773,0.0,0.0,0.0,0.012129740839,0.999926431987
1445255095015713930,0,1445255095014936075,odom,base_footprint,0.656148968388,0.00614682151344,0.0,0.0,0.0,0.0123042607385,0.999924299719
1445255095035727024,0,1445255095034922685,odom,base_footprint,0.663012902541,0.00631577115403,0.0,0.0,0.0,0.0124787802632,0.99992213699
1445255095055620908,0,1445255095054908699,odom,base_footprint,0.669876777302,0.0064871167493,0.0,0.0,0.0,0.0125660398834,0.999921044204
1445255095075579881,0,1445255095074907802,odom,base_footprint,0.676697989476,0.00665858861493,0.0,0.0,0.0,0.0127405588359,0.999918835786
1445255095096657037,0,1445255095095910696,odom,base_footprint,0.683689670177,0.00683678784498,0.0,0.0,0.0,0.012827818167,0.999917720156
1445255095115477085,0,1445255095114874072,odom,base_footprint,0.69068131967,0.00701620735079,0.0,0.0,0.0,0.0130023365353,0.999915466049
1445255095135490894,0,1445255095134790423,odom,base_footprint,0.697715537733,0.00719917629439,0.0,0.0,0.0,0.0130895955713,0.999914327574
1445255095155492067,0,1445255095154807958,odom,base_footprint,0.704792355185,0.00738448928114,0.0,0.0,0.0,0.0131768545077,0.999913181484
1445255095175447940,0,1445255095174781534,odom,base_footprint,0.711869140185,0.00757103740272,0.0,0.0,0.0,0.0133513720786,0.999910866459
1445255095195471048,0,1445255095194779430,odom,base_footprint,0.718817967117,0.00775663978214,0.0,0.0,0.0,0.0135258892428,0.999908520976
1445255095215492963,0,1445255095214770750,odom,base_footprint,0.725724098398,0.00794351420258,0.0,0.0,0.0,0.013700405995,0.999906145033
1445255095235491991,0,1445255095234786416,odom,base_footprint,0.732715424097,0.0081351361593,0.0,0.0,0.0,0.0137876642149,0.99990494564
1445255095255307912,0,1445255095254641468,odom,base_footprint,0.739450937263,0.00832092312828,0.0,0.0,0.0,0.0139621803391,0.999902524009
1445255095275316953,0,1445255095274656914,odom,base_footprint,0.746015867499,0.00850429823376,0.0,0.0,0.0,0.0139621803391,0.999902524009
1445255095295346975,0,1445255095294663309,odom,base_footprint,0.752580797735,0.00868767333925,0.0,0.0,0.0,0.0140494382421,0.999901301772
1445255095315412998,0,1445255095314657607,odom,base_footprint,0.759103066657,0.00887099605075,0.0,0.0,0.0,0.014136696038,0.99990007192
1445255095335464000,0,1445255095334727260,odom,base_footprint,0.765497416487,0.00905184022662,0.0,0.0,0.0,0.014136696038,0.99990007192
1445255095355464935,0,1445255095354650958,odom,base_footprint,0.771849137319,0.00923147877464,0.0,0.0,0.0,0.0142239537263,0.999898834453
1445255095375399112,0,1445255095374653644,odom,base_footprint,0.778072940337,0.00940858670039,0.0,0.0,0.0,0.0143112113063,0.999897589372
1445255095395361900,0,1445255095394658746,odom,base_footprint,0.784381969501,0.00958922189817,0.0,0.0,0.0,0.0144857261386,0.999895076365
1445255095415492057,0,1445255095414639608,odom,base_footprint,0.790435166346,0.00976464702234,0.0,0.0,0.0,0.0144857261386,0.999895076365
1445255095434340953,0,1445255095433639191,odom,base_footprint,0.796573619484,0.0099425429229,0.0,0.0,0.0,0.0145729833896,0.999893808439
1445255095454349994,0,1445255095453652662,odom,base_footprint,0.802839925272,0.0101252386675,0.0,0.0,0.0,0.0146602405297,0.999892532899
1445255095474318981,0,1445255095473650157,odom,base_footprint,0.809106199077,0.010309028086,0.0,0.0,0.0,0.0147474975581,0.999891249745
1445255095494239091,0,1445255095493526968,odom,base_footprint,0.81537244071,0.0104939111728,0.0,0.0,0.0,0.0148347544741,0.999889958975
1445255095515233039,0,1445255095514536653,odom,base_footprint,0.821596022706,0.0106786227743,0.0,0.0,0.0,0.0150092679667,0.999887354593
1445255095535321950,0,1445255095534555466,odom,base_footprint,0.827862166676,0.0108667868321,0.0,0.0,0.0,0.0150965245419,0.99988604098
1445255095555329084,0,1445255095554509477,odom,base_footprint,0.834128277709,0.0110560445354,0.0,0.0,0.0,0.0151837810021,0.999884719752
1445255095575208902,0,1445255095574533362,odom,base_footprint,0.840522234756,0.0112502805998,0.0,0.0,0.0,0.0152710373467,0.99988339091
1445255095595343112,0,1445255095594585881,odom,base_footprint,0.846830905498,0.0114430279237,0.0,0.0,0.0,0.0154455496863,0.999880710382
1445255095614429950,0,1445255095613539971,odom,base_footprint,0.853011631484,0.0116340256992,0.0,0.0,0.0,0.01553280568,0.999879358697
1445255095634344100,0,1445255095633508265,odom,base_footprint,0.859362825905,0.0118314008744,0.0,0.0,0.0,0.0156200615554,0.999877999396
1445255095654237031,0,1445255095653532671,odom,base_footprint,0.865586110078,0.0120258882238,0.0,0.0,0.0,0.0157073173118,0.999876632482
1445255095674151897,0,1445255095673400522,odom,base_footprint,0.871851985213,0.0122228012828,0.0,0.0,0.0,0.0158818284652,0.999873875809
1445255095694091081,0,1445255095693398337,odom,base_footprint,0.87803254217,0.0124191926858,0.0,0.0,0.0,0.0159690838608,0.99987248605
1445255095715075969,0,1445255095714377001,odom,base_footprint,0.884340937636,0.012620748385,0.0,0.0,0.0,0.0161435942865,0.999869683691
1445255095734081029,0,1445255095733365749,odom,base_footprint,0.890606638546,0.0128231293759,0.0,0.0,0.0,0.0162308493153,0.999868271089
1445255095754108905,0,1445255095753405310,odom,base_footprint,0.896829680464,0.0130252197542,0.0,0.0,0.0,0.0163181042205,0.999866850873
1445255095774070978,0,1445255095773402975,odom,base_footprint,0.903095310348,0.0132297878749,0.0,0.0,0.0,0.0164926136573,0.999863987598
1445255095794080972,0,1445255095793403963,odom,base_footprint,0.909275622754,0.0134337301043,0.0,0.0,0.0,0.0165798681877,0.999862544538
1445255095814084053,0,1445255095813399969,odom,base_footprint,0.915370654275,0.0136359231242,0.0,0.0,0.0,0.0165798681877,0.999862544538
1445255095834136009,0,1445255095833409682,odom,base_footprint,0.921465685797,0.0138381161441,0.0,0.0,0.0,0.0166671225918,0.999861093865
1445255095853965997,0,1445255095853279186,odom,base_footprint,0.927518059585,0.0140399515683,0.0,0.0,0.0,0.016754376869,0.999859635577
1445255095873953104,0,1445255095873274947,odom,base_footprint,0.933527775953,0.0142414145127,0.0,0.0,0.0,0.0168416310186,0.999858169674
1445255095893954992,0,1445255095893281212,odom,base_footprint,0.939580078919,0.0144453626017,0.0,0.0,0.0,0.0169288850399,0.999856696158
1445255095913966894,0,1445255095913274272,odom,base_footprint,0.945632346197,0.0146503670136,0.0,0.0,0.0,0.0170161389323,0.999855215027
1445255095934892892,0,1445255095934223078,odom,base_footprint,0.951812441647,0.014860781138,0.0,0.0,0.0,0.0171033926951,0.999853726281
1445255095954016923,0,1445255095953279585,odom,base_footprint,0.95790725809,0.0150693567479,0.0,0.0,0.0,0.0171033926951,0.999853726281
1445255095974025964,0,1445255095973275822,odom,base_footprint,0.963874211252,0.0152735566457,0.0,0.0,0.0,0.0171906463277,0.999852229921
1445255095993958950,0,1445255095993280087,odom,base_footprint,0.969798507844,0.0154773319608,0.0,0.0,0.0,0.0172778998294,0.999850725947
1445255096013839006,0,1445255096013151366,odom,base_footprint,0.97572276878,0.0156821412575,0.0,0.0,0.0,0.0173651531994,0.999849214359
1445255096033848047,0,1445255096033154258,odom,base_footprint,0.981689614205,0.0158894654166,0.0,0.0,0.0,0.0174524064373,0.999847695156
1445255096053843021,0,1445255096053155065,odom,base_footprint,0.987741663484,0.0161008076344,0.0,0.0,0.0,0.0174524064373,0.999847695156
1445255096073900938,0,1445255096073150841,odom,base_footprint,0.99392157296,0.0163166148287,0.0,0.0,0.0,0.0174524064373,0.999847695156
1445255096093810081,0,1445255096093150471,odom,base_footprint,1.0001441025,0.0165339103485,0.0,0.0,0.0,0.0175396595422,0.999846168339
1445255096113842964,0,1445255096113151308,odom,base_footprint,1.00645183363,0.0167552834293,0.0,0.0,0.0,0.0175396595422,0.999846168339
1445255096135103940,0,1445255096134133901,odom,base_footprint,1.01288742418,0.0169811438023,0.0,0.0,0.0,0.0176269125136,0.999844633908
1445255096154141902,0,1445255096153161783,odom,base_footprint,1.01928035566,0.0172066241918,0.0,0.0,0.0,0.0176269125136,0.999844633908
1445255096174236059,0,1445255096173093679,odom,base_footprint,1.02571590669,0.0174336077838,0.0,0.0,0.0,0.0177141653507,0.999843091863
1445255096193823099,0,1445255096193084459,odom,base_footprint,1.03223665656,0.0176647358701,0.0,0.0,0.0,0.0178014180529,0.999841542203
1445255096213821887,0,1445255096213077023,odom,base_footprint,1.03879998501,0.0178985201179,0.0,0.0,0.0,0.0178014180529,0.999841542203
1445255096233782052,0,1445255096233073736,odom,base_footprint,1.04532069445,0.0181307862862,0.0,0.0,0.0,0.0178014180529,0.999841542203
1445255096254103899,0,1445255096253100266,odom,base_footprint,1.05171354684,0.0183584982159,0.0,0.0,0.0,0.0178886706196,0.999839984929
1445255096274066925,0,1445255096273101289,odom,base_footprint,1.05814897813,0.0185888514233,0.0,0.0,0.0,0.01797592305,0.999838420041
1445255096293884038,0,1445255096292933765,odom,base_footprint,1.06458436913,0.0188203278218,0.0,0.0,0.0,0.0180631753435,0.999836847539
1445255096313617944,0,1445255096312905877,odom,base_footprint,1.07106233784,0.019054467799,0.0,0.0,0.0,0.0180631753435,0.999836847539
1445255096333746910,0,1445255096332928539,odom,base_footprint,1.07754030655,0.0192886077762,0.0,0.0,0.0,0.0182376795172,0.999833679692
1445255096353701114,0,1445255096352898111,odom,base_footprint,1.08401819314,0.0195250089767,0.0,0.0,0.0,0.0183249313961,0.999832084347
1445255096373682975,0,1445255096372902050,odom,base_footprint,1.09041080356,0.0197594153597,0.0,0.0,0.0,0.0184121831354,0.999830481388
1445255096393673896,0,1445255096392912890,odom,base_footprint,1.09688860723,0.0199980777548,0.0,0.0,0.0,0.0184994347345,0.999828870815
1445255096413629055,0,1445255096412901821,odom,base_footprint,1.10323851859,0.0202331379801,0.0,0.0,0.0,0.0184994347345,0.999828870815
1445255096433638095,0,1445255096432913312,odom,base_footprint,1.10954581309,0.0204666206199,0.0,0.0,0.0,0.0185866861927,0.999827252627
1445255096453766107,0,1445255096452905084,odom,base_footprint,1.11585306674,0.0207012040868,0.0,0.0,0.0,0.0185866861927,0.999827252627
1445255096472755908,0,1445255096471906341,odom,base_footprint,1.12203247066,0.0209310324833,0.0,0.0,0.0,0.0186739375094,0.999825626826
1445255096492690086,0,1445255096491896339,odom,base_footprint,1.12821183437,0.0211619393858,0.0,0.0,0.0,0.0188484397154,0.999822352381
1445255096512768983,0,1445255096511769041,odom,base_footprint,1.13434850136,0.0213933959419,0.0,0.0,0.0,0.0189356906034,0.999820703737
1445255096532793998,0,1445255096531759038,odom,base_footprint,1.14048512786,0.0216259235448,0.0,0.0,0.0,0.0190229413473,0.999819047479
1445255096553591012,0,1445255096552777578,odom,base_footprint,1.1467921744,0.0218660110388,0.0,0.0,0.0,0.0191101919463,0.999817383608
1445255096573563098,0,1445255096572774105,odom,base_footprint,1.15309917894,0.0221071993164,0.0,0.0,0.0,0.0191974423997,0.999815712122
1445255096593420028,0,1445255096592658830,odom,base_footprint,1.15953398512,0.0223543996349,0.0,0.0,0.0,0.0193719428673,0.999812346308
1445255096613595008,0,1445255096612631363,odom,base_footprint,1.16584086251,0.0225988902191,0.0,0.0,0.0,0.0194591928802,0.99981065198
1445255096633609056,0,1445255096632791752,odom,base_footprint,1.17206246964,0.0228411627555,0.0,0.0,0.0,0.0195464427448,0.999808950038
1445255096652489900,0,1445255096651671643,odom,base_footprint,1.17841187476,0.0230895216788,0.0,0.0,0.0,0.0196336924606,0.999807240482
1445255096672667026,0,1445255096671717879,odom,base_footprint,1.1848038496,0.0233406630543,0.0,0.0,0.0,0.0197209420269,0.999805523312
1445255096692490100,0,1445255096691699377,odom,base_footprint,1.19128100626,0.0235962834625,0.0,0.0,0.0,0.019808191443,0.999803798528
1445255096712635993,0,1445255096711675674,odom,base_footprint,1.19771550563,0.0238513451933,0.0,0.0,0.0,0.0198954407083,0.999802066131
1445255096732619047,0,1445255096731663592,odom,base_footprint,1.20406473581,0.0241041367767,0.0,0.0,0.0,0.0198954407083,0.999802066131
1445255096753330945,0,1445255096752542415,odom,base_footprint,1.21045657828,0.0243586249478,0.0,0.0,0.0,0.019982689822,0.999800326119
1445255096772335052,0,1445255096771501942,odom,base_footprint,1.21689098822,0.0246159327271,0.0,0.0,0.0,0.0201571875923,0.999796823254
1445255096792428970,0,1445255096791604470,odom,base_footprint,1.22324008517,0.0248720487248,0.0,0.0,0.0,0.0202444362475,0.9997950604
1445255096812534093,0,1445255096811556968,odom,base_footprint,1.22954652624,0.0251275465086,0.0,0.0,0.0,0.0203316847486,0.999793289933
1445255096832598924,0,1445255096831534588,odom,base_footprint,1.23581031183,0.0253824111968,0.0,0.0,0.0,0.0204189330948,0.999791511852
1445255096852371931,0,1445255096851569993,odom,base_footprint,1.24203144237,0.0256366279076,0.0,0.0,0.0,0.0204189330948,0.999791511852
1445255096872535943,0,1445255096871584692,odom,base_footprint,1.24820996241,0.025889103408,0.0,0.0,0.0,0.0205061812855,0.999789726157
1445255096892405033,0,1445255096891573793,odom,base_footprint,1.25447365866,0.0261461545543,0.0,0.0,0.0,0.0205061812855,0.999789726157
1445255096912247896,0,1445255096911366559,odom,base_footprint,1.26065213455,0.026399708406,0.0,0.0,0.0,0.0205934293201,0.999787932848
1445255096932353973,0,1445255096931369962,odom,base_footprint,1.26687317597,0.0266560966855,0.0,0.0,0.0,0.020767924918,0.999784323389
1445255096952413082,0,1445255096951393731,odom,base_footprint,1.27300890899,0.0269111145871,0.0,0.0,0.0,0.0208551724801,0.999782507239
1445255096973413944,0,1445255096972460620,odom,base_footprint,1.27927242425,0.0271725385553,0.0,0.0,0.0,0.0209424198834,0.999780683475
1445255096992237091,0,1445255096991394935,odom,base_footprint,1.28549328516,0.0274332698781,0.0,0.0,0.0,0.0209424198834,0.999780683475
1445255097012300014,0,1445255097011397547,odom,base_footprint,1.29167153743,0.02769221537,0.0,0.0,0.0,0.0211169142107,0.999777013106
1445255097032352924,0,1445255097031409860,odom,base_footprint,1.29797752296,0.0279587195752,0.0,0.0,0.0,0.0212041611335,0.9997751665
1445255097052257061,0,1445255097051396380,odom,base_footprint,1.3041982465,0.0282227080973,0.0,0.0,0.0,0.0212914078949,0.999773312281
1445255097072062969,0,1445255097071277877,odom,base_footprint,1.31041892386,0.0284877823365,0.0,0.0,0.0,0.0213786544941,0.999771450449
1445255097092022895,0,1445255097091264387,odom,base_footprint,1.31672476899,0.0287575883113,0.0,0.0,0.0,0.0213786544941,0.999771450449
1445255097112390041,0,1445255097111316045,odom,base_footprint,1.32303061412,0.0290273942862,0.0,0.0,0.0,0.0214659009304,0.999769581002
1445255097132206916,0,1445255097131329300,odom,base_footprint,1.32937901881,0.0293001312841,0.0,0.0,0.0,0.0215531472033,0.999767703942
1445255097152200937,0,1445255097151327086,odom,base_footprint,1.33581258864,0.0295776520554,0.0,0.0,0.0,0.0216403933121,0.999765819268
1445255097173235893,0,1445255097172306446,odom,base_footprint,1.34224610994,0.0298562956921,0.0,0.0,0.0,0.0218148850346,0.99976202708
1445255097192163944,0,1445255097191265597,odom,base_footprint,1.34863692813,0.0301353248401,0.0,0.0,0.0,0.0219021306469,0.999760119565
1445255097211986064,0,1445255097211200270,odom,base_footprint,1.35502769752,0.0304154693921,0.0,0.0,0.0,0.0219893760925,0.999758204437
1445255097232052087,0,1445255097231213029,odom,base_footprint,1.36133320831,0.0306929792068,0.0,0.0,0.0,0.0220766213706,0.999756281695
1445255097252207994,0,1445255097251221058,odom,base_footprint,1.36772387952,0.030975354541,0.0,0.0,0.0,0.0221638664806,0.99975435134
1445255097271939039,0,1445255097271142084,odom,base_footprint,1.37411450135,0.0312588452534,0.0,0.0,0.0,0.0222511114218,0.999752413371
1445255097292258024,0,1445255097291192529,odom,base_footprint,1.38067548887,0.031551040831,0.0,0.0,0.0,0.0222511114218,0.999752413371
1445255097312401056,0,1445255097311216299,odom,base_footprint,1.38736428783,0.0318489285302,0.0,0.0,0.0,0.0223383561936,0.999750467788
1445255097331937074,0,1445255097331103659,odom,base_footprint,1.39392522425,0.0321422692116,0.0,0.0,0.0,0.0224256007952,0.999748514592
1445255097351906061,0,1445255097351142713,odom,base_footprint,1.40052871252,0.0324386672333,0.0,0.0,0.0,0.0224256007952,0.999748514592
1445255097371829032,0,1445255097371038357,odom,base_footprint,1.40734521654,0.0327446264815,0.0,0.0,0.0,0.0226000894855,0.999744585359
1445255097391958951,0,1445255097391011171,odom,base_footprint,1.41411901086,0.0330510380033,0.0,0.0,0.0,0.0226000894855,0.999744585359
1445255097412208080,0,1445255097411036148,odom,base_footprint,1.42093540767,0.0333593766416,0.0,0.0,0.0,0.0226873335728,0.999742609323
1445255097431850910,0,1445255097431027113,odom,base_footprint,1.42775175056,0.0336689049608,0.0,0.0,0.0,0.0227745774873,0.999740625673
1445255097451807975,0,1445255097451022403,odom,base_footprint,1.43461064112,0.033981564939,0.0,0.0,0.0,0.0228618212284,0.999738634409
1445255097471812009,0,1445255097471021101,odom,base_footprint,1.44146947701,0.0342954220147,0.0,0.0,0.0,0.0229490647954,0.999736635532
1445255097491770029,0,1445255097491002594,odom,base_footprint,1.44820045465,0.0346046056039,0.0,0.0,0.0,0.0230363081876,0.999734629042
1445255097511790037,0,1445255097511017108,odom,base_footprint,1.454973979,0.0349169282589,0.0,0.0,0.0,0.0230363081876,0.999734629042
1445255097531857013,0,1445255097531028298,odom,base_footprint,1.46170490257,0.0352272866205,0.0,0.0,0.0,0.0231235514044,0.999732614938
1445255097551853895,0,1445255097550973946,odom,base_footprint,1.46864877406,0.0355486783884,0.0,0.0,0.0,0.0232107944451,0.999730593221
1445255097571822881,0,1445255097570901051,odom,base_footprint,1.47550738917,0.035867323758,0.0,0.0,0.0,0.023298037309,0.99972856389
1445255097592366933,0,1445255097591129535,odom,base_footprint,1.48266414679,0.036201072369,0.0,0.0,0.0,0.0234725225039,0.999724482389
1445255097611812114,0,1445255097610888539,odom,base_footprint,1.48969299032,0.0365313147327,0.0,0.0,0.0,0.0235597648336,0.999722430218
1445255097631685972,0,1445255097630895846,odom,base_footprint,1.4967217761,0.036862783856,0.0,0.0,0.0,0.0236470069839,0.999720370434
1445255097651675939,0,1445255097650893656,odom,base_footprint,1.50370790558,0.0371934633901,0.0,0.0,0.0,0.023734248954,0.999718303037
1445255097671678066,0,1445255097670889112,odom,base_footprint,1.51073657523,0.0375273860023,0.0,0.0,0.0,0.0238214907434,0.999716228026
1445255097690660953,0,1445255097689889617,odom,base_footprint,1.5176799912,0.0378584729273,0.0,0.0,0.0,0.0239087323514,0.999714145402
1445255097710655927,0,1445255097709892288,odom,base_footprint,1.52462334929,0.038190771702,0.0,0.0,0.0,0.0239087323514,0.999714145402
1445255097730722904,0,1445255097729900447,odom,base_footprint,1.53160930466,0.0385251091195,0.0,0.0,0.0,0.0239959737774,0.999712055165
1445255097750663042,0,1445255097749889879,odom,base_footprint,1.53863779851,0.0388627118885,0.0,0.0,0.0,0.0239959737774,0.999712055165
1445255097770586967,0,1445255097769775279,odom,base_footprint,1.54570888929,0.039202360735,0.0,0.0,0.0,0.0240832150206,0.999709957315
1445255097791517972,0,1445255097790763956,odom,base_footprint,1.55290771041,0.0395494042501,0.0,0.0,0.0,0.0240832150206,0.999709957315
1445255097810522079,0,1445255097809764822,odom,base_footprint,1.56006393495,0.0398943942533,0.0,0.0,0.0,0.0240832150206,0.999709957315
1445255097830564022,0,1445255097829766461,odom,base_footprint,1.56722015949,0.0402393842566,0.0,0.0,0.0,0.0240832150206,0.999709957315
1445255097850611925,0,1445255097849828156,odom,base_footprint,1.5744189806,0.0405864277717,0.0,0.0,0.0,0.0239959737774,0.999712055165
1445255097870431900,0,1445255097869649387,odom,base_footprint,1.58170305605,0.0409363070051,0.0,0.0,0.0,0.0239959737774,0.999712055165
1445255097890418052,0,1445255097889639440,odom,base_footprint,1.58877414682,0.0412759558515,0.0,0.0,0.0,0.0239959737774,0.999712055165
1445255097910445928,0,1445255097909650646,odom,base_footprint,1.59588783454,0.0416176507752,0.0,0.0,0.0,0.0239959737774,0.999712055165
1445255097930475950,0,1445255097929650621,odom,base_footprint,1.60278853759,0.0419491153121,0.0,0.0,0.0,0.0239087323514,0.999714145402
1445255097950455904,0,1445255097949692908,odom,base_footprint,1.60964670109,0.0422773368012,0.0,0.0,0.0,0.0238214907434,0.999716228026
1445255097970578908,0,1445255097969698601,odom,base_footprint,1.61641972649,0.0426002988938,0.0,0.0,0.0,0.0236470069839,0.999720370434
1445255097991684913,0,1445255097990720919,odom,base_footprint,1.62327806092,0.042924929412,0.0,0.0,0.0,0.0234725225039,0.999724482389
1445255098010624885,0,1445255098009859036,odom,base_footprint,1.62996611203,0.0432391600248,0.0,0.0,0.0,0.0233852799955,0.999726526946
1445255098030503034,0,1445255098029699394,odom,base_footprint,1.63644122089,0.0435422531781,0.0,0.0,0.0,0.0232107944451,0.999730593221
1445255098050484895,0,1445255098049542434,odom,base_footprint,1.64287383506,0.0438411069098,0.0,0.0,0.0,0.0231235514044,0.999732614938
1445255098070353984,0,1445255098069573941,odom,base_footprint,1.6494343026,0.0441447531199,0.0,0.0,0.0,0.0230363081876,0.999734629042
1445255098090362071,0,1445255098089520992,odom,base_footprint,1.65608002461,0.0444511828947,0.0,0.0,0.0,0.0229490647954,0.999736635532
1445255098110286951,0,1445255098109519719,odom,base_footprint,1.6625553955,0.0447486253349,0.0,0.0,0.0,0.0227745774873,0.999740625673
1445255098130393028,0,1445255098129527142,odom,base_footprint,1.66911607343,0.045047691401,0.0,0.0,0.0,0.0226000894855,0.999744585359
1445255098150257110,0,1445255098149509111,odom,base_footprint,1.67559165039,0.0453406131074,0.0,0.0,0.0,0.0223383561936,0.999750467788
1445255098170280933,0,1445255098169512770,odom,base_footprint,1.68210998333,0.0456320489792,0.0,0.0,0.0,0.0221638664806,0.99975435134
1445255098190176963,0,1445255098189395234,odom,base_footprint,1.68858581345,0.0459193195678,0.0,0.0,0.0,0.0219893760925,0.999758204437
1445255098211165904,0,1445255098210402488,odom,base_footprint,1.69514695306,0.0462080797804,0.0,0.0,0.0,0.0217276392561,0.999763926981
1445255098230454921,0,1445255098229390930,odom,base_footprint,1.70166563718,0.0464915517907,0.0,0.0,0.0,0.0215531472033,0.999767703942
1445255098250133991,0,1445255098249381239,odom,base_footprint,1.70818441986,0.0467727483338,0.0,0.0,0.0,0.0213786544941,0.999771450449
1445255098270169019,0,1445255098269387885,odom,base_footprint,1.71461808618,0.0470480233486,0.0,0.0,0.0,0.0212914078949,0.999773312281
1445255098290153026,0,1445255098289387319,odom,base_footprint,1.72117962258,0.0473276222036,0.0,0.0,0.0,0.0212041611335,0.9997751665
1445255098310131072,0,1445255098309385235,odom,base_footprint,1.72761338459,0.0476006514285,0.0,0.0,0.0,0.0210296671271,0.999778852097
1445255098330204010,0,1445255098329389635,odom,base_footprint,1.73400463319,0.0478696415627,0.0,0.0,0.0,0.0208551724801,0.999782507239
1445255098350136995,0,1445255098349265244,odom,base_footprint,1.7403959753,0.0481364007139,0.0,0.0,0.0,0.0206806771978,0.999786131926
1445255098369976997,0,1445255098369257457,odom,base_footprint,1.74674480056,0.0483991653287,0.0,0.0,0.0,0.0205061812855,0.999789726157
1445255098390000104,0,1445255098389274340,odom,base_footprint,1.75296588663,0.0486544678278,0.0,0.0,0.0,0.0203316847486,0.999793289933
1445255098409977912,0,1445255098409275804,odom,base_footprint,1.75927228301,0.0489110662893,0.0,0.0,0.0,0.0202444362475,0.9997950604
1445255098430222988,0,1445255098429268618,odom,base_footprint,1.76566394625,0.049170016746,0.0,0.0,0.0,0.0201571875923,0.999796823254
1445255098450102090,0,1445255098449312113,odom,base_footprint,1.77209826599,0.0494295705423,0.0,0.0,0.0,0.0200699387836,0.999798578493
1445255098470096111,0,1445255098469308440,odom,base_footprint,1.7786178543,0.0496914242584,0.0,0.0,0.0,0.019982689822,0.999800326119
1445255098490356922,0,1445255098489364137,odom,base_footprint,1.78509487622,0.0499504360627,0.0,0.0,0.0,0.0198954407083,0.999802066131
1445255098510242938,0,1445255098509234764,odom,base_footprint,1.79152933098,0.0502066208216,0.0,0.0,0.0,0.0198954407083,0.999802066131
1445255098529953002,0,1445255098529181348,odom,base_footprint,1.79783594888,0.0504577158172,0.0,0.0,0.0,0.019808191443,0.999803798528
1445255098550105094,0,1445255098549159184,odom,base_footprint,1.80422783567,0.0507110883975,0.0,0.0,0.0,0.0197209420269,0.999805523312
1445255098569941997,0,1445255098569180302,odom,base_footprint,1.81066237945,0.0509650270924,0.0,0.0,0.0,0.0196336924606,0.999807240482
1445255098589970111,0,1445255098589189984,odom,base_footprint,1.81705435429,0.051216168468,0.0,0.0,0.0,0.0196336924606,0.999807240482
1445255098610136985,0,1445255098609202594,odom,base_footprint,1.82327587647,0.0514606127401,0.0,0.0,0.0,0.0197209420269,0.999805523312
1445255098630080938,0,1445255098629189580,odom,base_footprint,1.82953996876,0.0517078245823,0.0,0.0,0.0,0.0197209420269,0.999805523312
1445255098649971961,0,1445255098649185957,odom,base_footprint,1.83567622244,0.0519499912848,0.0,0.0,0.0,0.0197209420269,0.999805523312
1445255098669905900,0,1445255098669144253,odom,base_footprint,1.84189770186,0.0521955214137,0.0,0.0,0.0,0.019808191443,0.999803798528
1445255098690116882,0,1445255098689201644,odom,base_footprint,1.84811913833,0.0524421373919,0.0,0.0,0.0,0.019808191443,0.999803798528
1445255098709984064,0,1445255098709074797,odom,base_footprint,1.85446841254,0.0526938208216,0.0,0.0,0.0,0.019808191443,0.999803798528
1445255098728768110,0,1445255098728005709,odom,base_footprint,1.86068984902,0.0529404367998,0.0,0.0,0.0,0.019808191443,0.999803798528
1445255098749186992,0,1445255098748227747,odom,base_footprint,1.86695389807,0.0531887419285,0.0,0.0,0.0,0.0197209420269,0.999805523312
1445255098768824100,0,1445255098768014735,odom,base_footprint,1.87330321611,0.0534393171971,0.0,0.0,0.0,0.0197209420269,0.999805523312
1445255098788829088,0,1445255098788012420,odom,base_footprint,1.87986559851,0.0536983010317,0.0,0.0,0.0,0.0197209420269,0.999805523312
1445255098808754920,0,1445255098808018470,odom,base_footprint,1.88638536804,0.0539556031531,0.0,0.0,0.0,0.0197209420269,0.999805523312
1445255098829862117,0,1445255098829022882,odom,base_footprint,1.89307558906,0.0542196321273,0.0,0.0,0.0,0.0196336924606,0.999807240482
1445255098848830938,0,1445255098848013269,odom,base_footprint,1.89968062973,0.054479144882,0.0,0.0,0.0,0.0197209420269,0.999805523312
1445255098868736028,0,1445255098868007902,odom,base_footprint,1.90624301214,0.0547381287166,0.0,0.0,0.0,0.0197209420269,0.999805523312
1445255098888643980,0,1445255098887854184,odom,base_footprint,1.91284800741,0.0549987942645,0.0,0.0,0.0,0.0197209420269,0.999805523312
1445255098908586978,0,1445255098907862288,odom,base_footprint,1.91949561556,0.0552611415255,0.0,0.0,0.0,0.0197209420269,0.999805523312
1445255098928611993,0,1445255098927893695,odom,base_footprint,1.92614322371,0.0555234887865,0.0,0.0,0.0,0.0197209420269,0.999805523312
1445255098948651075,0,1445255098947897209,odom,base_footprint,1.93296128335,0.0557925629004,0.0,0.0,0.0,0.019808191443,0.999803798528
1445255098968548059,0,1445255098967878782,odom,base_footprint,1.93994974624,0.0560695835882,0.0,0.0,0.0,0.0198954407083,0.999802066131
1445255098988591909,0,1445255098987882617,odom,base_footprint,1.94706599752,0.0563529137521,0.0,0.0,0.0,0.019982689822,0.999800326119
1445255099008568048,0,1445255099007875346,odom,base_footprint,1.95435264718,0.0566443020319,0.0,0.0,0.0,0.0200699387836,0.999798578493
1445255099029599905,0,1445255099028868507,odom,base_footprint,1.96180969264,0.0569438079164,0.0,0.0,0.0,0.0201571875923,0.999796823254
1445255099048589944,0,1445255099047884287,odom,base_footprint,1.96930929709,0.0572463341955,0.0,0.0,0.0,0.0202444362475,0.9997950604
1445255099068569898,0,1445255099067881897,odom,base_footprint,1.97685145972,0.0575518957343,0.0,0.0,0.0,0.0202444362475,0.9997950604
1445255099088603019,0,1445255099087887545,odom,base_footprint,1.98435101126,0.0578557309368,0.0,0.0,0.0,0.0202444362475,0.9997950604
1445255099108544111,0,1445255099107877829,odom,base_footprint,1.99163750736,0.0581509344573,0.0,0.0,0.0,0.0203316847486,0.999793289933
1445255099128593921,0,1445255099127882660,odom,base_footprint,1.99883873025,0.0584439421601,0.0,0.0,0.0,0.0203316847486,0.999793289933
1445255099148505926,0,1445255099147760334,odom,base_footprint,2.00586951,0.0587300147692,0.0,0.0,0.0,0.0204189330948,0.999791511852
1445255099168462038,0,1445255099167762644,odom,base_footprint,2.01298546068,0.0590207968973,0.0,0.0,0.0,0.0204189330948,0.999791511852
1445255099188476085,0,1445255099187759713,odom,base_footprint,2.02001619039,0.0593080966047,0.0,0.0,0.0,0.0205061812855,0.999789726157
1445255099208436965,0,1445255099207730949,odom,base_footprint,2.02691903931,0.0595913774598,0.0,0.0,0.0,0.0206806771978,0.999786131926
1445255099228389978,0,1445255099227652917,odom,base_footprint,2.03369396024,0.0598717772836,0.0,0.0,0.0,0.0206806771978,0.999786131926
1445255099249383926,0,1445255099248628299,odom,base_footprint,2.0402984429,0.0601451230239,0.0,0.0,0.0,0.0206806771978,0.999786131926
1445255099268352031,0,1445255099267646068,odom,base_footprint,2.04677509686,0.0604131782014,0.0,0.0,0.0,0.0206806771978,0.999786131926
1445255099288347005,0,1445255099287633505,odom,base_footprint,2.05308131257,0.0606741792953,0.0,0.0,0.0,0.0206806771978,0.999786131926
1445255099308562994,0,1445255099307645472,odom,base_footprint,2.05930230914,0.0609316533475,0.0,0.0,0.0,0.0206806771978,0.999786131926
1445255099328387022,0,1445255099327634323,odom,base_footprint,2.06539547701,0.0611838368368,0.0,0.0,0.0,0.020767924918,0.999784323389
1445255099348454952,0,1445255099347654228,odom,base_footprint,2.07140338226,0.0614335418655,0.0,0.0,0.0,0.020767924918,0.999784323389
1445255099368505001,0,1445255099367679316,odom,base_footprint,2.07753911529,0.0616885597671,0.0,0.0,0.0,0.020767924918,0.999784323389
1445255099388310909,0,1445255099387522015,odom,base_footprint,2.08363223906,0.0619418067111,0.0,0.0,0.0,0.020767924918,0.999784323389
1445255099408252954,0,1445255099407501208,odom,base_footprint,2.08972536283,0.062195053655,0.0,0.0,0.0,0.0206806771978,0.999786131926
1445255099428292989,0,1445255099427491381,odom,base_footprint,2.09577592113,0.0624454736235,0.0,0.0,0.0,0.0205934293201,0.999787932848
1445255099448436021,0,1445255099447571669,odom,base_footprint,2.10182652306,0.0626948375666,0.0,0.0,0.0,0.0205934293201,0.999787932848
1445255099468650102,0,1445255099467576986,odom,base_footprint,2.10791973485,0.0629459575937,0.0,0.0,0.0,0.0205934293201,0.999787932848
1445255099488286018,0,1445255099487508597,odom,base_footprint,2.11397033678,0.0631953215368,0.0,0.0,0.0,0.0205934293201,0.999787932848
1445255099508300065,0,1445255099507508833,odom,base_footprint,2.11997832883,0.0634429293957,0.0,0.0,0.0,0.0205934293201,0.999787932848
1445255099528340101,0,1445255099527532407,odom,base_footprint,2.12602893075,0.0636922933387,0.0,0.0,0.0,0.0206806771978,0.999786131926
1445255099548317909,0,1445255099547481347,odom,base_footprint,2.1319090508,0.0639356592236,0.0,0.0,0.0,0.0206806771978,0.999786131926
1445255099568056106,0,1445255099567350992,odom,base_footprint,2.13795960911,0.0641860791921,0.0,0.0,0.0,0.0206806771978,0.999786131926
1445255099588160991,0,1445255099587395884,odom,base_footprint,2.14396755785,0.0644347356397,0.0,0.0,0.0,0.0205934293201,0.999787932848
1445255099608141899,0,1445255099607380921,odom,base_footprint,2.15001815978,0.0646840995827,0.0,0.0,0.0,0.0206806771978,0.999786131926
1445255099627099990,0,1445255099626381691,odom,base_footprint,2.15619654678,0.0649398101139,0.0,0.0,0.0,0.0206806771978,0.999786131926
1445255099648183107,0,1445255099647381227,odom,base_footprint,2.16246015292,0.0651990476869,0.0,0.0,0.0,0.0206806771978,0.999786131926
1445255099668044090,0,1445255099667360260,odom,base_footprint,2.16880897819,0.0654618123017,0.0,0.0,0.0,0.0205934293201,0.999787932848
1445255099688139915,0,1445255099687383013,odom,base_footprint,2.17558394795,0.0657410296746,0.0,0.0,0.0,0.0205934293201,0.999787932848
1445255099707977056,0,1445255099707258877,odom,base_footprint,2.18240152758,0.0660220031315,0.0,0.0,0.0,0.0205934293201,0.999787932848
1445255099727977037,0,1445255099727252257,odom,base_footprint,2.18921910721,0.0663029765885,0.0,0.0,0.0,0.0205934293201,0.999787932848
1445255099748034000,0,1445255099747280031,odom,base_footprint,2.19612190659,0.0665874622136,0.0,0.0,0.0,0.0205061812855,0.999789726157
1445255099766979932,0,1445255099766251319,odom,base_footprint,2.20306736569,0.066872491716,0.0,0.0,0.0,0.0205061812855,0.999789726157
